{
	"places":[{
      "name": "Mysore Palace",
      "latitude": 12.305163,
      "longitude": 76.655227
    },
    {
      "name": "Meenakshi Temple",
      "latitude": 9.919504,
      "longitude": 78.119908
    },
    {
      "name": "Marina Beach",
      "latitude": 13.049952,
      "longitude": 80.282754
    },
    {
      "name": "Hampi",
      "latitude": 15.335011,
      "longitude": 76.460035
    },
    {
      "name": "Kumarakom Backwaters",
      "latitude": 9.617145,
      "longitude": 76.439714
    },
    {
      "name": "Coorg",
      "latitude": 12.419074,
      "longitude": 75.739965
    },
    {
      "name": "Varkala Beach",
      "latitude": 8.737867,
      "longitude": 76.703509
    },
    {
      "name": "Ramanagara",
      "latitude": 12.716693,
      "longitude": 77.281320
    },
    {
      "name": "Ooty",
      "latitude": 11.406414,
      "longitude": 76.693249
    },
    {
      "name": "Mahabalipuram",
      "latitude": 12.617237,
      "longitude": 80.192212
    },
    {
      "name": "Alleppey Backwaters",
      "latitude": 9.498066,
      "longitude": 76.338848
    },
    {
      "name": "Bandipur National Park",
      "latitude": 11.657301,
      "longitude": 76.585556
    },
    {
      "name": "Periyar Wildlife Sanctuary",
      "latitude": 9.534439,
      "longitude": 77.168497
    },
    {
      "name": "Pondicherry",
      "latitude": 11.941591,
      "longitude": 79.808313
    },
    {
      "name": "Rameswaram",
      "latitude": 9.288144,
      "longitude": 79.312929
    },
    {
      "name": "Kanyakumari",
      "latitude": 8.088306,
      "longitude": 77.538450
    },{
      "name": "Mysore Palace",
      "latitude": 12.305163,
      "longitude": 76.655227
    },
    {
      "name": "Meenakshi Temple",
      "latitude": 9.919504,
      "longitude": 78.119908
    },
    {
      "name": "Marina Beach",
      "latitude": 13.049952,
      "longitude": 80.282754
    },
    {
      "name": "Hampi",
      "latitude": 15.335011,
      "longitude": 76.460035
    },
    {
      "name": "Kumarakom Backwaters",
      "latitude": 9.617145,
      "longitude": 76.439714
    },
    {
      "name": "Coorg",
      "latitude": 12.419074,
      "longitude": 75.739965
    },
    {
      "name": "Varkala Beach",
      "latitude": 8.737867,
      "longitude": 76.703509
    },
    {
      "name": "Ramanagara",
      "latitude": 12.716693,
      "longitude": 77.281320
    },
    {
      "name": "Ooty",
      "latitude": 11.406414,
      "longitude": 76.693249
    },
    {
      "name": "Mahabalipuram",
      "latitude": 12.617237,
      "longitude": 80.192212
    },
    {
      "name": "Alleppey Backwaters",
      "latitude": 9.498066,
      "longitude": 76.338848
    },
    {
      "name": "Bandipur National Park",
      "latitude": 11.657301,
      "longitude": 76.585556
    },
    {
      "name": "Periyar Wildlife Sanctuary",
      "latitude": 9.534439,
      "longitude": 77.168497
    },
    {
      "name": "Pondicherry",
      "latitude": 11.941591,
      "longitude": 79.808313
    },
    {
      "name": "Rameswaram",
      "latitude": 9.288144,
      "longitude": 79.312929
    },
    {
      "name": "Kanyakumari",
      "latitude": 8.088306,
      "longitude": 77.538450
    },
    {
      "name": "Chikmagalur",
      "latitude": 13.316105,
      "longitude": 75.775395
    },
    {
      "name": "Chembra Peak",
      "latitude": 11.558600,
      "longitude": 76.119732
    },
    {
      "name": "Gandikota",
      "latitude": 14.815365,
      "longitude": 78.288266
    },
    {
      "name": "Araku Valley",
      "latitude": 18.333719,
      "longitude": 82.853167
    },
    {
      "name": "Tharangambadi (Tranquebar)",
      "latitude": 11.027263,
      "longitude": 79.855891
    },
    {
      "name": "Belum Caves",
      "latitude": 15.103371,
      "longitude": 78.115377
    },
    {
      "name": "Chitradurga Fort",
      "latitude": 14.226896,
      "longitude": 76.403812
    },
    {
      "name": "Agumbe",
      "latitude": 13.503459,
      "longitude": 75.093305
    },
    {
      "name": "Nagalapuram Hills",
      "latitude": 13.403110,
      "longitude": 79.792663
    },
    {
      "name": "Valparai",
      "latitude": 10.326565,
      "longitude": 76.951323
    },
    {
      "name": "Athirappilly Waterfalls",
      "latitude": 10.285619,
      "longitude": 76.569965
    },
    {
      "name": "Dhanushkodi",
      "latitude": 9.179673,
      "longitude": 79.442700
    },
    {
      "name": "Vattakanal",
      "latitude": 10.226929,
      "longitude": 77.473354
    },
    {
      "name": "Yercaud",
      "latitude": 11.779333,
      "longitude": 78.209201
    },
    {
      "name": "Bekal Fort",
      "latitude": 12.371450,
      "longitude": 75.034723
    },
    {
      "name": "Skandagiri Hills",
      "latitude": 13.416862,
      "longitude": 77.680512
    }
]
}